[
    
    {
        "id": 3077,
        "name": "Alibori Department",
        "country_id": 24,
        "country_code": "BJ",
        "country_name": "Benin",
        "state_code": "AL",
        "type": null,
        "latitude": "10.96810930",
        "longitude": "2.77798130"
    },
    {
        "id": 3076,
        "name": "Atakora Department",
        "country_id": 24,
        "country_code": "BJ",
        "country_name": "Benin",
        "state_code": "AK",
        "type": null,
        "latitude": "10.79549310",
        "longitude": "1.67606910"
    },
    {
        "id": 3079,
        "name": "Atlantique Department",
        "country_id": 24,
        "country_code": "BJ",
        "country_name": "Benin",
        "state_code": "AQ",
        "type": null,
        "latitude": "6.65883910",
        "longitude": "2.22366670"
    },
    {
        "id": 3078,
        "name": "Borgou Department",
        "country_id": 24,
        "country_code": "BJ",
        "country_name": "Benin",
        "state_code": "BO",
        "type": null,
        "latitude": "9.53408640",
        "longitude": "2.77798130"
    },
    {
        "id": 3070,
        "name": "Collines Department",
        "country_id": 24,
        "country_code": "BJ",
        "country_name": "Benin",
        "state_code": "CO",
        "type": null,
        "latitude": "8.30222970",
        "longitude": "2.30244600"
    },
    {
        "id": 3072,
        "name": "Donga Department",
        "country_id": 24,
        "country_code": "BJ",
        "country_name": "Benin",
        "state_code": "DO",
        "type": null,
        "latitude": "9.71918670",
        "longitude": "1.67606910"
    },
    {
        "id": 3071,
        "name": "Kouffo Department",
        "country_id": 24,
        "country_code": "BJ",
        "country_name": "Benin",
        "state_code": "KO",
        "type": null,
        "latitude": "7.00358940",
        "longitude": "1.75388170"
    },
    {
        "id": 3081,
        "name": "Littoral Department",
        "country_id": 24,
        "country_code": "BJ",
        "country_name": "Benin",
        "state_code": "LI",
        "type": null,
        "latitude": "6.38069730",
        "longitude": "2.44063870"
    },
    {
        "id": 3075,
        "name": "Mono Department",
        "country_id": 24,
        "country_code": "BJ",
        "country_name": "Benin",
        "state_code": "MO",
        "type": null,
        "latitude": "37.92186080",
        "longitude": "-118.95286450"
    },
    {
        "id": 3080,
        "name": "Ouémé Department",
        "country_id": 24,
        "country_code": "BJ",
        "country_name": "Benin",
        "state_code": "OU",
        "type": null,
        "latitude": "6.61481520",
        "longitude": "2.49999180"
    },
    {
        "id": 3074,
        "name": "Plateau Department",
        "country_id": 24,
        "country_code": "BJ",
        "country_name": "Benin",
        "state_code": "PL",
        "type": null,
        "latitude": "7.34451410",
        "longitude": "2.53960300"
    },
    {
        "id": 3073,
        "name": "Zou Department",
        "country_id": 24,
        "country_code": "BJ",
        "country_name": "Benin",
        "state_code": "ZO",
        "type": null,
        "latitude": "7.34692680",
        "longitude": "2.06651970"
    },
    {
        "id": 4860,
        "name": "Devonshire",
        "country_id": 25,
        "country_code": "BM",
        "country_name": "Bermuda",
        "state_code": "DEV",
        "type": "municipality",
        "latitude": "32.30380620",
        "longitude": "-64.76069540"
    },
    {
        "id": 4861,
        "name": "Hamilton",
        "country_id": 25,
        "country_code": "BM",
        "country_name": "Bermuda",
        "state_code": "HA",
        "type": "municipality",
        "latitude": "32.34494320",
        "longitude": "-64.72365000"
    },
    {
        "id": 4863,
        "name": "Paget",
        "country_id": 25,
        "country_code": "BM",
        "country_name": "Bermuda",
        "state_code": "PAG",
        "type": "municipality",
        "latitude": "32.28107400",
        "longitude": "-64.77847870"
    },
    {
        "id": 4864,
        "name": "Pembroke",
        "country_id": 25,
        "country_code": "BM",
        "country_name": "Bermuda",
        "state_code": "PEM",
        "type": "municipality",
        "latitude": "32.30076720",
        "longitude": "-64.79626300"
    },
    {
        "id": 4866,
        "name": "Saint George's",
        "country_id": 25,
        "country_code": "BM",
        "country_name": "Bermuda",
        "state_code": "SGE",
        "type": "municipality",
        "latitude": "17.12577590",
        "longitude": "-62.56198110"
    },
    {
        "id": 4867,
        "name": "Sandys",
        "country_id": 25,
        "country_code": "BM",
        "country_name": "Bermuda",
        "state_code": "SAN",
        "type": "municipality",
        "latitude": "32.29995280",
        "longitude": "-64.86741030"
    },
    {
        "id": 4868,
        "name": "Smith's",
        "country_id": 25,
        "country_code": "BM",
        "country_name": "Bermuda",
        "state_code": "SMI",
        "type": "municipality",
        "latitude": "32.31339660",
        "longitude": "-64.73105880"
    },
    {
        "id": 4869,
        "name": "Southampton",
        "country_id": 25,
        "country_code": "BM",
        "country_name": "Bermuda",
        "state_code": "SOU",
        "type": "municipality",
        "latitude": "32.25400950",
        "longitude": "-64.82590580"
    },
    {
        "id": 4870,
        "name": "Warwick",
        "country_id": 25,
        "country_code": "BM",
        "country_name": "Bermuda",
        "state_code": "WAR",
        "type": "municipality",
        "latitude": "32.26615340",
        "longitude": "-64.80811980"
    },
    {
        "id": 240,
        "name": "Bumthang District",
        "country_id": 26,
        "country_code": "BT",
        "country_name": "Bhutan",
        "state_code": "33",
        "type": null,
        "latitude": "27.64183900",
        "longitude": "90.67730460"
    },
    {
        "id": 239,
        "name": "Chukha District",
        "country_id": 26,
        "country_code": "BT",
        "country_name": "Bhutan",
        "state_code": "12",
        "type": null,
        "latitude": "27.07843040",
        "longitude": "89.47421770"
    },
    {
        "id": 238,
        "name": "Dagana District",
        "country_id": 26,
        "country_code": "BT",
        "country_name": "Bhutan",
        "state_code": "22",
        "type": null,
        "latitude": "27.03228610",
        "longitude": "89.88793040"
    },
    {
        "id": 229,
        "name": "Gasa District",
        "country_id": 26,
        "country_code": "BT",
        "country_name": "Bhutan",
        "state_code": "GA",
        "type": null,
        "latitude": "28.01858860",
        "longitude": "89.92532330"
    },
    {
        "id": 232,
        "name": "Haa District",
        "country_id": 26,
        "country_code": "BT",
        "country_name": "Bhutan",
        "state_code": "13",
        "type": null,
        "latitude": "27.26516690",
        "longitude": "89.17059980"
    },
    {
        "id": 234,
        "name": "Lhuntse District",
        "country_id": 26,
        "country_code": "BT",
        "country_name": "Bhutan",
        "state_code": "44",
        "type": null,
        "latitude": "27.82649890",
        "longitude": "91.13530200"
    },
    {
        "id": 242,
        "name": "Mongar District",
        "country_id": 26,
        "country_code": "BT",
        "country_name": "Bhutan",
        "state_code": "42",
        "type": null,
        "latitude": "27.26170590",
        "longitude": "91.28910360"
    },
    {
        "id": 237,
        "name": "Paro District",
        "country_id": 26,
        "country_code": "BT",
        "country_name": "Bhutan",
        "state_code": "11",
        "type": null,
        "latitude": "27.42859490",
        "longitude": "89.41665160"
    },
    {
        "id": 244,
        "name": "Pemagatshel District",
        "country_id": 26,
        "country_code": "BT",
        "country_name": "Bhutan",
        "state_code": "43",
        "type": null,
        "latitude": "27.00238200",
        "longitude": "91.34692470"
    },
    {
        "id": 235,
        "name": "Punakha District",
        "country_id": 26,
        "country_code": "BT",
        "country_name": "Bhutan",
        "state_code": "23",
        "type": null,
        "latitude": "27.69037160",
        "longitude": "89.88793040"
    },
    {
        "id": 243,
        "name": "Samdrup Jongkhar District",
        "country_id": 26,
        "country_code": "BT",
        "country_name": "Bhutan",
        "state_code": "45",
        "type": null,
        "latitude": "26.80356820",
        "longitude": "91.50392070"
    },
    {
        "id": 246,
        "name": "Samtse District",
        "country_id": 26,
        "country_code": "BT",
        "country_name": "Bhutan",
        "state_code": "14",
        "type": null,
        "latitude": "27.02918320",
        "longitude": "89.05615320"
    },
    {
        "id": 247,
        "name": "Sarpang District",
        "country_id": 26,
        "country_code": "BT",
        "country_name": "Bhutan",
        "state_code": "31",
        "type": null,
        "latitude": "26.93730410",
        "longitude": "90.48799160"
    },
    {
        "id": 241,
        "name": "Thimphu District",
        "country_id": 26,
        "country_code": "BT",
        "country_name": "Bhutan",
        "state_code": "15",
        "type": null,
        "latitude": "27.47122160",
        "longitude": "89.63390410"
    },
    {
        "id": 236,
        "name": "Trashigang District",
        "country_id": 26,
        "country_code": "BT",
        "country_name": "Bhutan",
        "state_code": "41",
        "type": null,
        "latitude": "27.25667950",
        "longitude": "91.75388170"
    },
    {
        "id": 245,
        "name": "Trongsa District",
        "country_id": 26,
        "country_code": "BT",
        "country_name": "Bhutan",
        "state_code": "32",
        "type": null,
        "latitude": "27.50022690",
        "longitude": "90.50806340"
    },
    {
        "id": 230,
        "name": "Tsirang District",
        "country_id": 26,
        "country_code": "BT",
        "country_name": "Bhutan",
        "state_code": "21",
        "type": null,
        "latitude": "27.03220700",
        "longitude": "90.18696440"
    },
    {
        "id": 231,
        "name": "Wangdue Phodrang District",
        "country_id": 26,
        "country_code": "BT",
        "country_name": "Bhutan",
        "state_code": "24",
        "type": null,
        "latitude": "27.45260460",
        "longitude": "90.06749280"
    },
    {
        "id": 233,
        "name": "Zhemgang District",
        "country_id": 26,
        "country_code": "BT",
        "country_name": "Bhutan",
        "state_code": "34",
        "type": null,
        "latitude": "27.07697500",
        "longitude": "90.82940020"
    }
]